{
  "source_forecasts": "Open-Meteo Previous Runs API",
  "source_observations": "Open-Meteo Archive API (ERA5 daily)",
  "lead": "previous_day1_only",
  "label_rule": "tmax_obs[D+1] > tmax_obs[D]",
  "vote_rule": "tmax_fcst_prev_day1[D+1] > tmax_obs[D]",
  "timezone": "UTC",
  "start_date": "2024-06-01",
  "end_date": "2025-12-31",
  "models": [
    "gfs_seamless",
    "ecmwf_ifs025",
    "icon_seamless",
    "gem_seamless",
    "meteofrance_seamless",
    "jma_seamless"
  ],
  "cities": [
    {
      "symbol": "NYC",
      "lat": 40.7128,
      "lon": -74.006,
      "name": "New York"
    },
    {
      "symbol": "CHI",
      "lat": 41.8781,
      "lon": -87.6298,
      "name": "Chicago"
    },
    {
      "symbol": "DEN",
      "lat": 39.7392,
      "lon": -104.9903,
      "name": "Denver"
    },
    {
      "symbol": "SEA",
      "lat": 47.6062,
      "lon": -122.3321,
      "name": "Seattle"
    },
    {
      "symbol": "LON",
      "lat": 51.5074,
      "lon": -0.1278,
      "name": "London"
    },
    {
      "symbol": "BER",
      "lat": 52.52,
      "lon": 13.405,
      "name": "Berlin"
    },
    {
      "symbol": "TOK",
      "lat": 35.6762,
      "lon": 139.6503,
      "name": "Tokyo"
    },
    {
      "symbol": "SYD",
      "lat": -33.8688,
      "lon": 151.2093,
      "name": "Sydney"
    },
    {
      "symbol": "SAO",
      "lat": -23.5505,
      "lon": -46.6333,
      "name": "Sao Paulo"
    },
    {
      "symbol": "JNB",
      "lat": -26.2041,
      "lon": 28.0473,
      "name": "Johannesburg"
    },
    {
      "symbol": "DEL",
      "lat": 28.6139,
      "lon": 77.209,
      "name": "Delhi"
    },
    {
      "symbol": "CAI",
      "lat": 30.0444,
      "lon": 31.2357,
      "name": "Cairo"
    }
  ],
  "n_observation_rows": 6948,
  "n_forecast_rows": 6948,
  "forbidden": [
    "weekly_median_threshold",
    "undisclosed_city_filter",
    "analysis_as_report",
    "same_valid_time_nowcast_as_evidence"
  ],
  "dropped_models": [
    "cma_grapes_global"
  ],
  "drop_reason": "incomplete previous_day1 coverage (~9% missing)"
}